[{"name":"Aš","gps":{"type":"Point","coordinates":[12.195113,50.223983]},"district":"Cheb","region":"Karlovarský kraj","zip":35201},{"name":"Benešov","gps":{"type":"Point","coordinates":[16.770698,49.509531]},"district":"Blansko","region":"Jihomoravský kraj","zip":67953},{"name":"Benešov","gps":{"type":"Point","coordinates":[14.68747,49.783882]},"district":"Benešov","region":"Středočeský kraj","zip":25601},{"name":"Beroun","gps":{"type":"Point","coordinates":[14.086384,49.967305]},"district":"Beroun","region":"Středočeský kraj","zip":26601},{"name":"Bílina","gps":{"type":"Point","coordinates":[13.775459,50.548647]},"district":"Teplice","region":"Ústecký kraj","zip":41801},{"name":"Bílovec","gps":{"type":"Point","coordinates":[18.015919,49.756486]},"district":"Nový Jičín","region":"Moravskoslezský kraj","zip":74301},{"name":"Blansko","gps":{"type":"Point","coordinates":[16.647855,49.36495]},"district":"Blansko","region":"Jihomoravský kraj","zip":67801},{"name":"Blatná","gps":{"type":"Point","coordinates":[13.881864,49.424993]},"district":"Strakonice","region":"Jihočeský kraj","zip":38801},{"name":"Blovice","gps":{"type":"Point","coordinates":[13.540199,49.582303]},"district":"Plzeň-jih","region":"Plzeňský kraj","zip":33601},{"name":"Bohumín","gps":{"type":"Point","coordinates":[18.357074,49.904426]},"district":"Karviná","region":"Moravskoslezský kraj","zip":73581},{"name":"Boskovice","gps":{"type":"Point","coordinates":[16.660076,49.487612]},"district":"Blansko","region":"Jihomoravský kraj","zip":68001},{"name":"Brno","gps":{"type":"Point","coordinates":[16.606937,49.19516]},"district":"Brno-město","region":"Jihomoravský kraj","zip":60200},{"name":"Broumov","gps":{"type":"Point","coordinates":[16.331915,50.585758]},"district":"Náchod","region":"Královéhradecký kraj","zip":55001},{"name":"Broumov","gps":{"type":"Point","coordinates":[12.606805,49.889478]},"district":"Tachov","region":"Plzeňský kraj","zip":34815},{"name":"Bruntál","gps":{"type":"Point","coordinates":[17.463794,49.988277]},"district":"Bruntál","region":"Moravskoslezský kraj","zip":79201},{"name":"Břeclav","gps":{"type":"Point","coordinates":[16.882617,48.75324]},"district":"Břeclav","region":"Jihomoravský kraj","zip":69002},{"name":"Bučovice","gps":{"type":"Point","coordinates":[17.003981,49.149402]},"district":"Vyškov","region":"Jihomoravský kraj","zip":68501},{"name":"Bystřice nad Pernštejnem","gps":{"type":"Point","coordinates":[16.261571,49.523046]},"district":"Žďár nad Sázavou","region":"Kraj Vysočina","zip":59301},{"name":"Bystřice pod Hostýnem","gps":{"type":"Point","coordinates":[17.674121,49.399337]},"district":"Kroměříž","region":"Zlínský kraj","zip":76861},{"name":"Čáslav","gps":{"type":"Point","coordinates":[15.390894,49.910995]},"district":"Kutná Hora","region":"Středočeský kraj","zip":28601},{"name":"Černošice","gps":{"type":"Point","coordinates":[14.319902,49.960184]},"district":"Praha-západ","region":"Středočeský kraj","zip":25228},{"name":"Česká Lípa","gps":{"type":"Point","coordinates":[14.539799,50.67862]},"district":"Česká Lípa","region":"Liberecký kraj","zip":47001},{"name":"Česká Třebová","gps":{"type":"Point","coordinates":[16.447385,49.901982]},"district":"Ústí nad Orlicí","region":"Pardubický kraj","zip":56002},{"name":"Český Brod","gps":{"type":"Point","coordinates":[14.860919,50.074304]},"district":"Kolín","region":"Středočeský kraj","zip":28201},{"name":"Český Krumlov","gps":{"type":"Point","coordinates":[14.317566,48.812835]},"district":"Český Krumlov","region":"Jihočeský kraj","zip":38101},{"name":"Český Těšín","gps":{"type":"Point","coordinates":[18.623896,49.747144]},"district":"Karviná","region":"Moravskoslezský kraj","zip":73701},{"name":"Dačice","gps":{"type":"Point","coordinates":[15.434304,49.07992]},"district":"Jindřichův Hradec","region":"Jihočeský kraj","zip":38001},{"name":"Dobruška","gps":{"type":"Point","coordinates":[16.160118,50.292111]},"district":"Rychnov nad Kněžnou","region":"Královéhradecký kraj","zip":51801},{"name":"Dobříš","gps":{"type":"Point","coordinates":[14.167273,49.781238]},"district":"Příbram","region":"Středočeský kraj","zip":26301},{"name":"Domažlice","gps":{"type":"Point","coordinates":[12.931243,49.439803]},"district":"Domažlice","region":"Plzeňský kraj","zip":34401},{"name":"Dvůr Králové nad Labem","gps":{"type":"Point","coordinates":[15.814127,50.43182]},"district":"Trutnov","region":"Královéhradecký kraj","zip":54401},{"name":"Frenštát pod Radhoštěm","gps":{"type":"Point","coordinates":[18.21089,49.548445]},"district":"Nový Jičín","region":"Moravskoslezský kraj","zip":74401},{"name":"Frýdlant","gps":{"type":"Point","coordinates":[15.079851,50.921496]},"district":"Liberec","region":"Liberecký kraj","zip":46401},{"name":"Frýdlant nad Ostravicí","gps":{"type":"Point","coordinates":[18.358605,49.591902]},"district":"Frýdek-Místek","region":"Moravskoslezský kraj","zip":73911},{"name":"Havlíčkův Brod","gps":{"type":"Point","coordinates":[15.579755,49.604436]},"district":"Havlíčkův Brod","region":"Kraj Vysočina","zip":58001},{"name":"Hlinsko","gps":{"type":"Point","coordinates":[17.579251,49.49464]},"district":"Přerov","region":"Olomoucký kraj","zip":75131},{"name":"Hlinsko","gps":{"type":"Point","coordinates":[15.907661,49.762231]},"district":"Chrudim","region":"Pardubický kraj","zip":53901},{"name":"Hlučín","gps":{"type":"Point","coordinates":[18.190649,49.896627]},"district":"Opava","region":"Moravskoslezský kraj","zip":74801},{"name":"Hodonín","gps":{"type":"Point","coordinates":[16.410379,49.501284]},"district":"Blansko","region":"Jihomoravský kraj","zip":67971},{"name":"Hodonín","gps":{"type":"Point","coordinates":[17.126102,48.853039]},"district":"Hodonín","region":"Jihomoravský kraj","zip":69501},{"name":"Hodonín","gps":{"type":"Point","coordinates":[15.78717,49.837054]},"district":"Chrudim","region":"Pardubický kraj","zip":53825},{"name":"Holešov","gps":{"type":"Point","coordinates":[17.57843,49.33341]},"district":"Kroměříž","region":"Zlínský kraj","zip":76901},{"name":"Holice","gps":{"type":"Point","coordinates":[15.986005,50.06611]},"district":"Pardubice","region":"Pardubický kraj","zip":53401},{"name":"Horažďovice","gps":{"type":"Point","coordinates":[13.701106,49.320794]},"district":"Klatovy","region":"Plzeňský kraj","zip":34101},{"name":"Horšovský Týn","gps":{"type":"Point","coordinates":[12.944527,49.530286]},"district":"Domažlice","region":"Plzeňský kraj","zip":34601},{"name":"Hořice","gps":{"type":"Point","coordinates":[15.185502,49.599362]},"district":"Pelhřimov","region":"Kraj Vysočina","zip":39601},{"name":"Hořice","gps":{"type":"Point","coordinates":[15.63194,50.366189]},"district":"Jičín","region":"Královéhradecký kraj","zip":50801},{"name":"Hořovice","gps":{"type":"Point","coordinates":[13.902789,49.836078]},"district":"Beroun","region":"Středočeský kraj","zip":26801},{"name":"Hranice","gps":{"type":"Point","coordinates":[14.868392,48.83852]},"district":"České Budějovice","region":"Jihočeský kraj","zip":37401},{"name":"Hranice","gps":{"type":"Point","coordinates":[12.175894,50.304702]},"district":"Cheb","region":"Karlovarský kraj","zip":35124},{"name":"Hranice","gps":{"type":"Point","coordinates":[17.735022,49.549764]},"district":"Přerov","region":"Olomoucký kraj","zip":75301},{"name":"Humpolec","gps":{"type":"Point","coordinates":[15.359423,49.541624]},"district":"Pelhřimov","region":"Kraj Vysočina","zip":39601},{"name":"Hustopeče","gps":{"type":"Point","coordinates":[16.737726,48.940946]},"district":"Břeclav","region":"Jihomoravský kraj","zip":69301},{"name":"Cheb","gps":{"type":"Point","coordinates":[12.369964,50.079633]},"district":"Cheb","region":"Karlovarský kraj","zip":35002},{"name":"Chomutov","gps":{"type":"Point","coordinates":[13.410837,50.463598]},"district":"Chomutov","region":"Ústecký kraj","zip":43004},{"name":"Chotěboř","gps":{"type":"Point","coordinates":[15.671142,49.720714]},"district":"Havlíčkův Brod","region":"Kraj Vysočina","zip":58301},{"name":"Chrudim","gps":{"type":"Point","coordinates":[15.795158,49.949824]},"district":"Chrudim","region":"Pardubický kraj","zip":53701},{"name":"Ivančice","gps":{"type":"Point","coordinates":[16.377622,49.101545]},"district":"Brno-venkov","region":"Jihomoravský kraj","zip":66491},{"name":"Jablonec nad Nisou","gps":{"type":"Point","coordinates":[15.170414,50.722153]},"district":"Jablonec nad Nisou","region":"Liberecký kraj","zip":46601},{"name":"Jablunkov","gps":{"type":"Point","coordinates":[18.764694,49.576815]},"district":"Frýdek-Místek","region":"Moravskoslezský kraj","zip":73991},{"name":"Jaroměř","gps":{"type":"Point","coordinates":[15.924238,50.356904]},"district":"Náchod","region":"Královéhradecký kraj","zip":55101},{"name":"Jeseník","gps":{"type":"Point","coordinates":[17.198147,50.224725]},"district":"Jeseník","region":"Olomoucký kraj","zip":79001},{"name":"Jičín","gps":{"type":"Point","coordinates":[15.361144,50.435433]},"district":"Jičín","region":"Královéhradecký kraj","zip":50601},{"name":"Jihlava","gps":{"type":"Point","coordinates":[15.595469,49.41586]},"district":"Jihlava","region":"Kraj Vysočina","zip":58601},{"name":"Jilemnice","gps":{"type":"Point","coordinates":[15.506637,50.608996]},"district":"Semily","region":"Liberecký kraj","zip":51401},{"name":"Jindřichův Hradec","gps":{"type":"Point","coordinates":[15.006239,49.144582]},"district":"Jindřichův Hradec","region":"Jihočeský kraj","zip":37701},{"name":"Kadaň","gps":{"type":"Point","coordinates":[13.271422,50.376092]},"district":"Chomutov","region":"Ústecký kraj","zip":43201},{"name":"Kaplice","gps":{"type":"Point","coordinates":[14.496373,48.738589]},"district":"Český Krumlov","region":"Jihočeský kraj","zip":38241},{"name":"Karlovy Vary","gps":{"type":"Point","coordinates":[12.872062,50.231952]},"district":"Karlovy Vary","region":"Karlovarský kraj","zip":36001},{"name":"Kladno","gps":{"type":"Point","coordinates":[15.982386,49.772574]},"district":"Chrudim","region":"Pardubický kraj","zip":53901},{"name":"Kladno","gps":{"type":"Point","coordinates":[14.106846,50.141799]},"district":"Kladno","region":"Středočeský kraj","zip":27201},{"name":"Klatovy","gps":{"type":"Point","coordinates":[13.295194,49.395655]},"district":"Klatovy","region":"Plzeňský kraj","zip":33901},{"name":"Kolín","gps":{"type":"Point","coordinates":[15.202828,50.027429]},"district":"Kolín","region":"Středočeský kraj","zip":28002},{"name":"Konice","gps":{"type":"Point","coordinates":[16.889217,49.590395]},"district":"Prostějov","region":"Olomoucký kraj","zip":79852},{"name":"Kopřivnice","gps":{"type":"Point","coordinates":[18.14491,49.59957]},"district":"Nový Jičín","region":"Moravskoslezský kraj","zip":74221},{"name":"Kostelec nad Orlicí","gps":{"type":"Point","coordinates":[16.215084,50.122511]},"district":"Rychnov nad Kněžnou","region":"Královéhradecký kraj","zip":51741},{"name":"Králíky","gps":{"type":"Point","coordinates":[15.53668,50.259542]},"district":"Hradec Králové","region":"Královéhradecký kraj","zip":50401},{"name":"Králíky","gps":{"type":"Point","coordinates":[16.760646,50.083939]},"district":"Ústí nad Orlicí","region":"Pardubický kraj","zip":56169},{"name":"Kralovice","gps":{"type":"Point","coordinates":[13.487584,49.982024]},"district":"Plzeň-sever","region":"Plzeňský kraj","zip":33141},{"name":"Kralupy nad Vltavou","gps":{"type":"Point","coordinates":[14.310745,50.241745]},"district":"Mělník","region":"Středočeský kraj","zip":27801},{"name":"Kraslice","gps":{"type":"Point","coordinates":[12.517588,50.323835]},"district":"Sokolov","region":"Karlovarský kraj","zip":35801},{"name":"Kravaře","gps":{"type":"Point","coordinates":[14.392521,50.632503]},"district":"Česká Lípa","region":"Liberecký kraj","zip":47103},{"name":"Kravaře","gps":{"type":"Point","coordinates":[18.004827,49.93213]},"district":"Opava","region":"Moravskoslezský kraj","zip":74721},{"name":"Krnov","gps":{"type":"Point","coordinates":[17.703168,50.090683]},"district":"Bruntál","region":"Moravskoslezský kraj","zip":79401},{"name":"Kroměříž","gps":{"type":"Point","coordinates":[17.39948,49.291758]},"district":"Kroměříž","region":"Zlínský kraj","zip":76701},{"name":"Kuřim","gps":{"type":"Point","coordinates":[16.531546,49.298618]},"district":"Brno-venkov","region":"Jihomoravský kraj","zip":66434},{"name":"Kutná Hora","gps":{"type":"Point","coordinates":[15.268754,49.952531]},"district":"Kutná Hora","region":"Středočeský kraj","zip":28401},{"name":"Kyjov","gps":{"type":"Point","coordinates":[17.12261,49.009967]},"district":"Hodonín","region":"Jihomoravský kraj","zip":69701},{"name":"Kyjov","gps":{"type":"Point","coordinates":[15.623325,49.629564]},"district":"Havlíčkův Brod","region":"Kraj Vysočina","zip":58001},{"name":"Kyjov","gps":{"type":"Point","coordinates":[15.881657,49.443544]},"district":"Žďár nad Sázavou","region":"Kraj Vysočina","zip":59214},{"name":"Lanškroun","gps":{"type":"Point","coordinates":[16.612597,49.912141]},"district":"Ústí nad Orlicí","region":"Pardubický kraj","zip":56301},{"name":"Liberec","gps":{"type":"Point","coordinates":[15.054439,50.76638]},"district":"Liberec","region":"Liberecký kraj","zip":46001},{"name":"Lipník nad Bečvou","gps":{"type":"Point","coordinates":[17.586743,49.526832]},"district":"Přerov","region":"Olomoucký kraj","zip":75131},{"name":"Litoměřice","gps":{"type":"Point","coordinates":[14.130646,50.53852]},"district":"Litoměřice","region":"Ústecký kraj","zip":41201},{"name":"Litomyšl","gps":{"type":"Point","coordinates":[16.311162,49.870623]},"district":"Svitavy","region":"Pardubický kraj","zip":57001},{"name":"Litovel","gps":{"type":"Point","coordinates":[17.076255,49.701309]},"district":"Olomouc","region":"Olomoucký kraj","zip":78401},{"name":"Litvínov","gps":{"type":"Point","coordinates":[13.610342,50.598526]},"district":"Most","region":"Ústecký kraj","zip":43601},{"name":"Louny","gps":{"type":"Point","coordinates":[13.803455,50.354081]},"district":"Louny","region":"Ústecký kraj","zip":44001},{"name":"Lovosice","gps":{"type":"Point","coordinates":[14.051142,50.515143]},"district":"Litoměřice","region":"Ústecký kraj","zip":41002},{"name":"Luhačovice","gps":{"type":"Point","coordinates":[17.757583,49.099922]},"district":"Zlín","region":"Zlínský kraj","zip":76326},{"name":"Lysá nad Labem","gps":{"type":"Point","coordinates":[14.832919,50.201532]},"district":"Nymburk","region":"Středočeský kraj","zip":28922},{"name":"Mariánské Lázně","gps":{"type":"Point","coordinates":[12.701298,49.964699]},"district":"Cheb","region":"Karlovarský kraj","zip":35301},{"name":"Mělník","gps":{"type":"Point","coordinates":[14.481881,50.354002]},"district":"Mělník","region":"Středočeský kraj","zip":27601},{"name":"Mikulov","gps":{"type":"Point","coordinates":[16.637788,48.805383]},"district":"Břeclav","region":"Jihomoravský kraj","zip":69201},{"name":"Mikulov","gps":{"type":"Point","coordinates":[13.721712,50.687713]},"district":"Teplice","region":"Ústecký kraj","zip":41901},{"name":"Milevsko","gps":{"type":"Point","coordinates":[14.360109,49.450998]},"district":"Písek","region":"Jihočeský kraj","zip":39901},{"name":"Mladá Boleslav","gps":{"type":"Point","coordinates":[14.908538,50.413525]},"district":"Mladá Boleslav","region":"Středočeský kraj","zip":29301},{"name":"Mnichovo Hradiště","gps":{"type":"Point","coordinates":[14.972104,50.527029]},"district":"Mladá Boleslav","region":"Středočeský kraj","zip":29501},{"name":"Mohelnice","gps":{"type":"Point","coordinates":[16.919567,49.777082]},"district":"Šumperk","region":"Olomoucký kraj","zip":78985},{"name":"Mohelnice","gps":{"type":"Point","coordinates":[13.641798,49.48089]},"district":"Plzeň-jih","region":"Plzeňský kraj","zip":33501},{"name":"Moravská Třebová","gps":{"type":"Point","coordinates":[16.663631,49.757697]},"district":"Svitavy","region":"Pardubický kraj","zip":57101},{"name":"Moravské Budějovice","gps":{"type":"Point","coordinates":[15.808746,49.05219]},"district":"Třebíč","region":"Kraj Vysočina","zip":67602},{"name":"Moravský Krumlov","gps":{"type":"Point","coordinates":[16.311798,49.049031]},"district":"Znojmo","region":"Jihomoravský kraj","zip":67201},{"name":"Most","gps":{"type":"Point","coordinates":[13.633012,50.501655]},"district":"Most","region":"Ústecký kraj","zip":43401},{"name":"Náchod","gps":{"type":"Point","coordinates":[16.165735,50.414672]},"district":"Náchod","region":"Královéhradecký kraj","zip":54701},{"name":"Náměšť nad Oslavou","gps":{"type":"Point","coordinates":[16.155845,49.205556]},"district":"Třebíč","region":"Kraj Vysočina","zip":67571},{"name":"Nepomuk","gps":{"type":"Point","coordinates":[13.582361,49.48627]},"district":"Plzeň-jih","region":"Plzeňský kraj","zip":33501},{"name":"Nepomuk","gps":{"type":"Point","coordinates":[13.837368,49.642895]},"district":"Příbram","region":"Středočeský kraj","zip":26242},{"name":"Neratovice","gps":{"type":"Point","coordinates":[14.517703,50.259361]},"district":"Mělník","region":"Středočeský kraj","zip":27711},{"name":"Nová Paka","gps":{"type":"Point","coordinates":[15.515138,50.494593]},"district":"Jičín","region":"Královéhradecký kraj","zip":50901},{"name":"Nové Město na Moravě","gps":{"type":"Point","coordinates":[16.074288,49.561543]},"district":"Žďár nad Sázavou","region":"Kraj Vysočina","zip":59231},{"name":"Nové Město nad Metují","gps":{"type":"Point","coordinates":[16.151571,50.344662]},"district":"Náchod","region":"Královéhradecký kraj","zip":54901},{"name":"Nový Bor","gps":{"type":"Point","coordinates":[14.555664,50.757714]},"district":"Česká Lípa","region":"Liberecký kraj","zip":47301},{"name":"Nový Bydžov","gps":{"type":"Point","coordinates":[15.490926,50.241602]},"district":"Hradec Králové","region":"Královéhradecký kraj","zip":50401},{"name":"Nový Jičín","gps":{"type":"Point","coordinates":[18.013636,49.594425]},"district":"Nový Jičín","region":"Moravskoslezský kraj","zip":74101},{"name":"Nymburk","gps":{"type":"Point","coordinates":[15.04376,50.185682]},"district":"Nymburk","region":"Středočeský kraj","zip":28802},{"name":"Nýřany","gps":{"type":"Point","coordinates":[13.204705,49.712816]},"district":"Plzeň-sever","region":"Plzeňský kraj","zip":33023},{"name":"Odry","gps":{"type":"Point","coordinates":[17.83095,49.662648]},"district":"Nový Jičín","region":"Moravskoslezský kraj","zip":74235},{"name":"Olomouc","gps":{"type":"Point","coordinates":[17.250979,49.593878]},"district":"Olomouc","region":"Olomoucký kraj","zip":77900},{"name":"Opava","gps":{"type":"Point","coordinates":[17.894899,49.94076]},"district":"Opava","region":"Moravskoslezský kraj","zip":74601},{"name":"Orlová","gps":{"type":"Point","coordinates":[18.425108,49.870238]},"district":"Karviná","region":"Moravskoslezský kraj","zip":73511},{"name":"Ostrava","gps":{"type":"Point","coordinates":[18.262624,49.821023]},"district":"Ostrava-město","region":"Moravskoslezský kraj","zip":70200},{"name":"Ostrov","gps":{"type":"Point","coordinates":[12.939183,50.306035]},"district":"Karlovy Vary","region":"Karlovarský kraj","zip":36301},{"name":"Ostrov","gps":{"type":"Point","coordinates":[15.301494,49.693104]},"district":"Havlíčkův Brod","region":"Kraj Vysočina","zip":58401},{"name":"Ostrov","gps":{"type":"Point","coordinates":[16.030432,49.972703]},"district":"Chrudim","region":"Pardubický kraj","zip":53863},{"name":"Ostrov","gps":{"type":"Point","coordinates":[16.540637,49.930345]},"district":"Ústí nad Orlicí","region":"Pardubický kraj","zip":56122},{"name":"Ostrov","gps":{"type":"Point","coordinates":[14.851197,49.665402]},"district":"Benešov","region":"Středočeský kraj","zip":25706},{"name":"Ostrov","gps":{"type":"Point","coordinates":[14.014609,49.611219]},"district":"Příbram","region":"Středočeský kraj","zip":26272},{"name":"Otrokovice","gps":{"type":"Point","coordinates":[17.530876,49.210016]},"district":"Zlín","region":"Zlínský kraj","zip":76502},{"name":"Pacov","gps":{"type":"Point","coordinates":[15.001783,49.470865]},"district":"Pelhřimov","region":"Kraj Vysočina","zip":39501},{"name":"Pardubice","gps":{"type":"Point","coordinates":[15.781299,50.034409]},"district":"Pardubice","region":"Pardubický kraj","zip":53002},{"name":"Pelhřimov","gps":{"type":"Point","coordinates":[15.223083,49.430721]},"district":"Pelhřimov","region":"Kraj Vysočina","zip":39301},{"name":"Písek","gps":{"type":"Point","coordinates":[14.158129,49.303554]},"district":"Písek","region":"Jihočeský kraj","zip":39701},{"name":"Písek","gps":{"type":"Point","coordinates":[15.501834,50.15553]},"district":"Hradec Králové","region":"Královéhradecký kraj","zip":50351},{"name":"Písek","gps":{"type":"Point","coordinates":[18.80242,49.55934]},"district":"Frýdek-Místek","region":"Moravskoslezský kraj","zip":73984},{"name":"Podbořany","gps":{"type":"Point","coordinates":[13.41203,50.229475]},"district":"Louny","region":"Ústecký kraj","zip":44101},{"name":"Poděbrady","gps":{"type":"Point","coordinates":[15.118988,50.142525]},"district":"Nymburk","region":"Středočeský kraj","zip":29001},{"name":"Pohořelice","gps":{"type":"Point","coordinates":[16.524557,48.981287]},"district":"Brno-venkov","region":"Jihomoravský kraj","zip":69123},{"name":"Pohořelice","gps":{"type":"Point","coordinates":[17.537954,49.176665]},"district":"Zlín","region":"Zlínský kraj","zip":76361},{"name":"Polička","gps":{"type":"Point","coordinates":[16.265977,49.715034]},"district":"Svitavy","region":"Pardubický kraj","zip":57201},{"name":"Praha","gps":{"type":"Point","coordinates":[14.4379,50.075638]},"district":"Praha","region":"Hlavní město Praha","zip":11000},{"name":"Prachatice","gps":{"type":"Point","coordinates":[14.0001,49.01101]},"district":"Prachatice","region":"Jihočeský kraj","zip":38301},{"name":"Přelouč","gps":{"type":"Point","coordinates":[15.560413,50.039948]},"district":"Pardubice","region":"Pardubický kraj","zip":53501},{"name":"Přeštice","gps":{"type":"Point","coordinates":[13.333607,49.573091]},"district":"Plzeň-jih","region":"Plzeňský kraj","zip":33401},{"name":"Příbram","gps":{"type":"Point","coordinates":[13.999045,49.685532]},"district":"Příbram","region":"Středočeský kraj","zip":26101},{"name":"Rakovník","gps":{"type":"Point","coordinates":[13.739762,50.106223]},"district":"Rakovník","region":"Středočeský kraj","zip":26901},{"name":"Rokycany","gps":{"type":"Point","coordinates":[13.592993,49.738197]},"district":"Rokycany","region":"Plzeňský kraj","zip":33701},{"name":"Rosice","gps":{"type":"Point","coordinates":[16.387975,49.18242]},"district":"Brno-venkov","region":"Jihomoravský kraj","zip":66501},{"name":"Rosice","gps":{"type":"Point","coordinates":[15.951376,49.922359]},"district":"Chrudim","region":"Pardubický kraj","zip":53834},{"name":"Roudnice nad Labem","gps":{"type":"Point","coordinates":[14.260565,50.425305]},"district":"Litoměřice","region":"Ústecký kraj","zip":41301},{"name":"Rožnov pod Radhoštěm","gps":{"type":"Point","coordinates":[18.143131,49.458626]},"district":"Vsetín","region":"Zlínský kraj","zip":75661},{"name":"Rumburk","gps":{"type":"Point","coordinates":[14.555255,50.953525]},"district":"Děčín","region":"Ústecký kraj","zip":40801},{"name":"Rychnov nad Kněžnou","gps":{"type":"Point","coordinates":[16.277784,50.166065]},"district":"Rychnov nad Kněžnou","region":"Královéhradecký kraj","zip":51601},{"name":"Rýmařov","gps":{"type":"Point","coordinates":[17.271873,49.931927]},"district":"Bruntál","region":"Moravskoslezský kraj","zip":79501},{"name":"Říčany","gps":{"type":"Point","coordinates":[16.393723,49.215075]},"district":"Brno-venkov","region":"Jihomoravský kraj","zip":66482},{"name":"Říčany","gps":{"type":"Point","coordinates":[14.654376,49.991778]},"district":"Praha-východ","region":"Středočeský kraj","zip":25101},{"name":"Sedlčany","gps":{"type":"Point","coordinates":[14.426744,49.660677]},"district":"Příbram","region":"Středočeský kraj","zip":26401},{"name":"Semily","gps":{"type":"Point","coordinates":[15.328241,50.605258]},"district":"Semily","region":"Liberecký kraj","zip":51301},{"name":"Slaný","gps":{"type":"Point","coordinates":[14.087044,50.230562]},"district":"Kladno","region":"Středočeský kraj","zip":27401},{"name":"Slavkov u Brna","gps":{"type":"Point","coordinates":[16.876598,49.153354]},"district":"Vyškov","region":"Jihomoravský kraj","zip":68401},{"name":"Soběslav","gps":{"type":"Point","coordinates":[14.718717,49.260039]},"district":"Tábor","region":"Jihočeský kraj","zip":39201},{"name":"Sokolov","gps":{"type":"Point","coordinates":[12.659992,50.174629]},"district":"Sokolov","region":"Karlovarský kraj","zip":35601},{"name":"Stod","gps":{"type":"Point","coordinates":[13.164846,49.639199]},"district":"Plzeň-jih","region":"Plzeňský kraj","zip":33301},{"name":"Strakonice","gps":{"type":"Point","coordinates":[13.910408,49.260504]},"district":"Strakonice","region":"Jihočeský kraj","zip":38601},{"name":"Stříbro","gps":{"type":"Point","coordinates":[13.004203,49.753048]},"district":"Tachov","region":"Plzeňský kraj","zip":34901},{"name":"Sušice","gps":{"type":"Point","coordinates":[17.537486,49.486027]},"district":"Přerov","region":"Olomoucký kraj","zip":75111},{"name":"Sušice","gps":{"type":"Point","coordinates":[13.520509,49.231776]},"district":"Klatovy","region":"Plzeňský kraj","zip":34201},{"name":"Sušice","gps":{"type":"Point","coordinates":[17.452331,49.122346]},"district":"Uherské Hradiště","region":"Zlínský kraj","zip":68704},{"name":"Světlá nad Sázavou","gps":{"type":"Point","coordinates":[15.404038,49.66811]},"district":"Havlíčkův Brod","region":"Kraj Vysočina","zip":58291},{"name":"Svitavy","gps":{"type":"Point","coordinates":[16.469286,49.755263]},"district":"Svitavy","region":"Pardubický kraj","zip":56802},{"name":"Šlapanice","gps":{"type":"Point","coordinates":[16.727418,49.168729]},"district":"Brno-venkov","region":"Jihomoravský kraj","zip":66451},{"name":"Šlapanice","gps":{"type":"Point","coordinates":[14.111319,50.314773]},"district":"Kladno","region":"Středočeský kraj","zip":27372},{"name":"Šternberk","gps":{"type":"Point","coordinates":[17.298995,49.730542]},"district":"Olomouc","region":"Olomoucký kraj","zip":78501},{"name":"Šumperk","gps":{"type":"Point","coordinates":[16.971875,49.977941]},"district":"Šumperk","region":"Olomoucký kraj","zip":78701},{"name":"Tábor","gps":{"type":"Point","coordinates":[14.677566,49.413089]},"district":"Tábor","region":"Jihočeský kraj","zip":39002},{"name":"Tachov","gps":{"type":"Point","coordinates":[14.638554,50.543414]},"district":"Česká Lípa","region":"Liberecký kraj","zip":47201},{"name":"Tachov","gps":{"type":"Point","coordinates":[12.636292,49.79888]},"district":"Tachov","region":"Plzeňský kraj","zip":34701},{"name":"Tanvald","gps":{"type":"Point","coordinates":[15.307982,50.737629]},"district":"Jablonec nad Nisou","region":"Liberecký kraj","zip":46841},{"name":"Telč","gps":{"type":"Point","coordinates":[15.454373,49.183338]},"district":"Jihlava","region":"Kraj Vysočina","zip":58856},{"name":"Teplice","gps":{"type":"Point","coordinates":[13.835384,50.644558]},"district":"Teplice","region":"Ústecký kraj","zip":41501},{"name":"Tišnov","gps":{"type":"Point","coordinates":[16.424485,49.348818]},"district":"Brno-venkov","region":"Jihomoravský kraj","zip":66601},{"name":"Trhové Sviny","gps":{"type":"Point","coordinates":[14.639338,48.842418]},"district":"České Budějovice","region":"Jihočeský kraj","zip":37401},{"name":"Trutnov","gps":{"type":"Point","coordinates":[15.909192,50.565484]},"district":"Trutnov","region":"Královéhradecký kraj","zip":54101},{"name":"Třebíč","gps":{"type":"Point","coordinates":[15.879652,49.214887]},"district":"Třebíč","region":"Kraj Vysočina","zip":67401},{"name":"Třeboň","gps":{"type":"Point","coordinates":[14.764232,49.003615]},"district":"Jindřichův Hradec","region":"Jihočeský kraj","zip":37901},{"name":"Třinec","gps":{"type":"Point","coordinates":[18.67089,49.677731]},"district":"Frýdek-Místek","region":"Moravskoslezský kraj","zip":73961},{"name":"Turnov","gps":{"type":"Point","coordinates":[15.156909,50.587385]},"district":"Semily","region":"Liberecký kraj","zip":51101},{"name":"Týn nad Vltavou","gps":{"type":"Point","coordinates":[14.42067,49.223502]},"district":"České Budějovice","region":"Jihočeský kraj","zip":37501},{"name":"Uherské Hradiště","gps":{"type":"Point","coordinates":[17.49595,49.059897]},"district":"Uherské Hradiště","region":"Zlínský kraj","zip":68601},{"name":"Uherský Brod","gps":{"type":"Point","coordinates":[17.649938,49.030373]},"district":"Uherské Hradiště","region":"Zlínský kraj","zip":68801},{"name":"Uničov","gps":{"type":"Point","coordinates":[17.121542,49.771013]},"district":"Olomouc","region":"Olomoucký kraj","zip":78391},{"name":"Ústí nad Orlicí","gps":{"type":"Point","coordinates":[16.399762,49.97228]},"district":"Ústí nad Orlicí","region":"Pardubický kraj","zip":56201},{"name":"Valašské Klobouky","gps":{"type":"Point","coordinates":[18.00857,49.139664]},"district":"Zlín","region":"Zlínský kraj","zip":76601},{"name":"Valašské Meziříčí","gps":{"type":"Point","coordinates":[17.971237,49.471904]},"district":"Vsetín","region":"Zlínský kraj","zip":75701},{"name":"Varnsdorf","gps":{"type":"Point","coordinates":[14.618348,50.911648]},"district":"Děčín","region":"Ústecký kraj","zip":40747},{"name":"Velké Meziříčí","gps":{"type":"Point","coordinates":[16.013158,49.356189]},"district":"Žďár nad Sázavou","region":"Kraj Vysočina","zip":59401},{"name":"Veselí nad Moravou","gps":{"type":"Point","coordinates":[17.381015,48.952477]},"district":"Hodonín","region":"Jihomoravský kraj","zip":69801},{"name":"Vimperk","gps":{"type":"Point","coordinates":[13.774586,49.052562]},"district":"Prachatice","region":"Jihočeský kraj","zip":38501},{"name":"Vítkov","gps":{"type":"Point","coordinates":[17.749517,49.774549]},"district":"Opava","region":"Moravskoslezský kraj","zip":74901},{"name":"Vizovice","gps":{"type":"Point","coordinates":[17.854921,49.223073]},"district":"Zlín","region":"Zlínský kraj","zip":76312},{"name":"Vlašim","gps":{"type":"Point","coordinates":[14.89891,49.706428]},"district":"Benešov","region":"Středočeský kraj","zip":25801},{"name":"Vodňany","gps":{"type":"Point","coordinates":[14.175231,49.147997]},"district":"Strakonice","region":"Jihočeský kraj","zip":38901},{"name":"Votice","gps":{"type":"Point","coordinates":[14.63819,49.64023]},"district":"Benešov","region":"Středočeský kraj","zip":25901},{"name":"Vrchlabí","gps":{"type":"Point","coordinates":[15.605106,50.617189]},"district":"Trutnov","region":"Královéhradecký kraj","zip":54301},{"name":"Vsetín","gps":{"type":"Point","coordinates":[17.993952,49.339025]},"district":"Vsetín","region":"Zlínský kraj","zip":75501},{"name":"Vysoké Mýto","gps":{"type":"Point","coordinates":[16.164268,49.954364]},"district":"Ústí nad Orlicí","region":"Pardubický kraj","zip":56601},{"name":"Vyškov","gps":{"type":"Point","coordinates":[16.996199,49.277552]},"district":"Vyškov","region":"Jihomoravský kraj","zip":68201},{"name":"Zábřeh","gps":{"type":"Point","coordinates":[16.872332,49.8827]},"district":"Šumperk","region":"Olomoucký kraj","zip":78901},{"name":"Znojmo","gps":{"type":"Point","coordinates":[16.054368,48.856011]},"district":"Znojmo","region":"Jihomoravský kraj","zip":66902},{"name":"Žamberk","gps":{"type":"Point","coordinates":[16.465301,50.087401]},"district":"Ústí nad Orlicí","region":"Pardubický kraj","zip":56401},{"name":"Žatec","gps":{"type":"Point","coordinates":[15.509005,49.206444]},"district":"Jihlava","region":"Kraj Vysočina","zip":58862},{"name":"Žatec","gps":{"type":"Point","coordinates":[13.545886,50.327276]},"district":"Louny","region":"Ústecký kraj","zip":43801},{"name":"Žďár nad Sázavou","gps":{"type":"Point","coordinates":[15.939507,49.564288]},"district":"Žďár nad Sázavou","region":"Kraj Vysočina","zip":59101},{"name":"Železný Brod","gps":{"type":"Point","coordinates":[15.254186,50.64284]},"district":"Jablonec nad Nisou","region":"Liberecký kraj","zip":46822},{"name":"Židlochovice","gps":{"type":"Point","coordinates":[16.618911,49.039624]},"district":"Brno-venkov","region":"Jihomoravský kraj","zip":66701}]